[
    {
        "name": "Chinatown On Thayer",
        "mylist": "true",
        "image": "/images/chinatown.jpg",
        "rating": "4.4",
        "latitude": "41.8295",
        "longitude": "-71.4007"
    },
    {
        "name": "Kabob and Curry",
        "mylist": "false",
        "image": "/images/kabob.jpg",
        "rating": "4.3",
        "latitude": "41.8289",
        "longitude": "-71.4006"
    },
    {
        "name": "Andrea's Providence",
        "mylist": "false",
        "image": "/images/andreas.jpg",
        "rating": "3.9",
        "latitude": "41.8291",
        "longitude": "-71.4009"
    },
    {
        "name": "East Side Pockets",
        "mylist": "true",
        "image": "/images/eastside.jpg",
        "rating": "4.7",
        "latitude": "41.8296",
        "longitude": "-71.4009"
    },
    {
        "name": "Ganko Ittetsu Ramen",
        "mylist": "true",
        "image": "/images/ganko.jpg",
        "rating": "4.3",
        "latitude": "41.8274967",
        "longitude": "-71.4002777"
    },
    {
        "name": "Shake Shack Thayer Street",
        "mylist": "false",
        "image": "/images/shake.webp",
        "rating": "3.9",
        "latitude": "41.8285",
        "longitude": "-71.4005"
    },
    {
        "name": "Heng Thai & Rotisserie",
        "mylist": "true",
        "image": "/images/heng.jpg",
        "rating": "4.6",
        "latitude": "41.8278",
        "longitude": "-71.4012"
    },
    {
        "name": "Chipotle Mexican Grill",
        "mylist": "true",
        "image": "/images/chipotle.jpg",
        "rating": "3.8",
        "latitude": "41.827910",
        "longitude": "-71.400430"
    },
    {
        "name": "Yan's Cuisine",
        "mylist": "false",
        "image": "/images/yans.webp",
        "rating": "3.6",
        "latitude": "41.8248",
        "longitude": "-71.3991"
    },
    {
        "name": "Den Den Korean Fried Chicken",
        "mylist": "true",
        "image": "/images/denden.jpg",
        "rating": "4.6",
        "latitude": "41.8283",
        "longitude": "-71.4003"
    },
    {
        "name": "Flatbread Company",
        "mylist": "false",
        "image": "/images/flatbread.webp",
        "rating": "4.6",
        "latitude": "41.8297",
        "longitude": "-71.4003"
    },
    {
        "name": "Insomnia Cookies",
        "mylist": "true",
        "image": "/images/insomnia.jpg",
        "rating": "4.1",
        "latitude": "41.830450",
        "longitude": "-71.400780"
    }
]